City_ID,City,Lat,Lng,Max Temp,Humidity,Cloudiness,Wind Speed,Country,Date
0,port-aux-francais,-49.35,70.2167,280.05,91,100,17.82,TF,1715317837
1,college,64.8569,-147.8028,281.12,74,75,3.13,US,1715317713
2,ribeira grande,38.5167,-28.7,290.8,91,23,3.58,PT,1715317719
3,iskateley,67.6803,53.1512,271.49,95,100,11.62,RU,1715317839
4,grytviken,-54.2811,-36.5092,273.57,89,100,1.23,GS,1715317839
5,isafjordur,66.0755,-23.124,274.63,83,96,1.19,IS,1715317770
6,kupang,-10.1667,123.5833,307.47,55,20,11.32,ID,1715317840
7,kodiak,57.79,-152.4072,276.88,70,20,3.6,US,1715317840
8,vanimo,-2.6741,141.3028,299.66,93,100,3.13,PG,1715317840
9,puerto natales,-51.7236,-72.4875,271.21,95,50,1.11,CL,1715317841
10,invercargill,-46.4,168.35,282.05,78,100,1.79,NZ,1715317763
11,iqaluit,63.7506,-68.5145,267.07,93,100,0.73,CA,1715317841
12,lupiro,-8.3833,36.6667,295.44,92,71,0.58,TZ,1715317842
13,keflavik,64.0049,-22.5624,279.39,75,100,3.09,IS,1715317842
14,bethel,41.3712,-73.414,285.48,82,100,5.14,US,1715317842
15,portland,45.5234,-122.6762,292.47,61,0,0.45,US,1715317459
16,albany,42.6001,-73.9662,285.62,71,100,0.45,US,1715317843
17,selfoss,63.9331,-20.9971,279.84,56,100,3.85,IS,1715317843
18,machico,32.7,-16.7667,293.5,80,40,6.69,PT,1715317843
19,xining,36.6167,101.7667,281.45,84,100,2.23,CN,1715317844
20,hilo,19.7297,-155.09,297.19,94,100,3.09,US,1715317844
21,adamstown,-25.066,-130.1015,295.65,80,87,4.25,PN,1715317716
22,yellowknife,62.456,-114.3525,281.71,71,52,4.02,CA,1715317719
23,caraballeda,10.6112,-66.8522,299.19,94,75,0.0,VE,1715317845
24,maceio,-9.6658,-35.7353,297.84,88,0,1.54,BR,1715317845
25,nagqu,31.5,92.0,279.45,22,100,5.31,CN,1715317845
26,punta arenas,-53.15,-70.9167,272.21,93,40,3.09,CL,1715317846
27,stanley,54.868,-1.6985,284.16,90,0,2.06,GB,1715317846
28,gebre guracha,9.8,38.4,287.41,79,96,1.29,ET,1715317846
29,kamloops,50.6665,-120.3192,290.79,44,10,0.89,CA,1715317754
30,whitehorse,60.7161,-135.0538,280.82,66,75,4.63,CA,1715317575
31,lebu,-37.6167,-73.65,281.28,83,15,0.64,CL,1715317735
32,thompson,55.7435,-97.8558,280.24,94,90,2.11,CA,1715317758
33,bredasdorp,-34.5322,20.0403,283.73,66,0,3.23,ZA,1715317848
34,laojunmiao,39.8333,97.7333,288.21,27,100,4.09,CN,1715317848
35,lihue,21.9789,-159.3672,298.73,80,40,3.6,US,1715317848
36,pointe-noire,-4.7761,11.8635,298.09,94,85,1.37,CG,1715317849
37,upington,-28.4478,21.2561,295.27,32,67,5.77,ZA,1715317849
38,inhambane,-23.865,35.3833,294.37,86,5,0.88,MZ,1715317849
39,hermanus,-34.4187,19.2345,286.45,73,1,5.84,ZA,1715317850
40,wailua homesteads,22.0669,-159.378,298.39,84,40,3.6,US,1715317850
41,thames,-37.1333,175.5333,284.11,51,0,2.25,NZ,1715317819
42,blackmans bay,-43.0167,147.3167,287.33,88,94,1.18,AU,1715317851
43,hawaiian paradise park,19.5933,-154.9731,296.41,92,100,3.09,US,1715317611
44,longyearbyen,78.2186,15.6401,273.06,69,75,7.2,SJ,1715317851
45,edinburgh of the seven seas,-37.0676,-12.3116,287.05,72,100,8.28,SH,1715317788
46,bilibino,68.0546,166.4372,274.17,85,96,1.03,RU,1715317803
47,port alfred,-33.5906,26.891,288.25,99,21,1.78,ZA,1715317852
48,dudinka,69.4058,86.1778,267.97,88,30,4.47,RU,1715317852
49,nishinoomote,30.7333,131.0,294.69,50,60,3.7,JP,1715317853
50,puerto santa,-8.9906,-78.6456,291.92,90,97,5.07,PE,1715317853
51,nuku'alofa,-21.1333,-175.2,296.34,78,40,3.09,TO,1715317853
52,margaret river,-33.95,115.0667,294.13,76,46,9.33,AU,1715317854
53,udachny,66.4167,112.4,267.29,72,100,5.0,RU,1715317854
54,la'ie,21.6477,-157.9253,297.13,83,79,2.24,US,1715317854
55,nadym,65.5333,72.5167,274.8,100,100,9.23,RU,1715317855
56,papatowai,-46.5619,169.4708,280.77,84,100,4.93,NZ,1715317855
57,petukhovo,55.0692,67.9019,285.11,40,2,6.78,RU,1715317855
58,charters towers,-20.1,146.2667,300.6,44,100,5.7,AU,1715317856
59,touros,-5.1989,-35.4608,297.65,93,83,4.02,BR,1715317743
60,windhoek,-22.5594,17.0832,291.16,49,1,0.89,NA,1715317856
61,petropavlovsk-kamchatsky,53.0452,158.6483,279.48,66,75,11.0,RU,1715317857
62,pitimbu,-7.4706,-34.8086,296.48,81,11,5.29,BR,1715317857
63,fale old settlement,-9.3852,-171.2468,302.44,72,100,1.77,TK,1715317810
64,waitangi,-43.9535,-176.5597,282.49,74,87,12.67,NZ,1715317857
65,khasab,26.1799,56.2477,301.89,31,0,2.33,OM,1715317858
66,yangchun,22.1667,111.7833,298.56,86,100,2.35,CN,1715317858
67,corowa,-36.0333,146.3833,292.27,69,98,3.51,AU,1715317858
68,ta`u,-14.2336,-169.5144,300.6,82,100,2.5,AS,1715317859
69,hasaki,35.7333,140.8333,295.37,42,0,7.98,JP,1715317725
70,port mathurin,-19.6833,63.4167,298.6,74,100,11.06,MU,1715317860
71,bozoum,6.3193,16.3799,297.33,71,98,3.41,CF,1715317860
72,puerto baquerizo moreno,-0.9,-89.6,296.07,88,72,3.43,EC,1715317860
73,hamilton,39.1834,-84.5333,287.17,91,100,3.09,US,1715317841
74,garachico,28.7781,-17.7646,291.21,73,0,7.72,ES,1715317861
75,brigantine,39.4101,-74.3646,287.26,90,75,4.63,US,1715317861
76,puerto penasco,31.3167,-113.5333,295.87,57,33,2.25,MX,1715317674
77,fortuna,40.5982,-124.1573,287.4,85,0,2.57,US,1715317862
78,waddan,29.1614,16.139,289.18,60,0,3.5,LY,1715317862
79,takayama,36.1333,137.25,295.42,32,4,3.86,JP,1715317863
80,atafu village,-8.5421,-172.5159,302.64,69,86,0.6,TK,1715317769
81,tidjikja,18.5564,-11.4271,304.1,6,99,2.46,MR,1715317863
82,ovruch,51.3246,28.8035,283.69,65,49,2.75,UA,1715317864
83,buctzotz,21.2,-88.7833,299.47,81,26,3.2,MX,1715317864
84,tiksi,71.6872,128.8694,271.53,91,100,3.43,RU,1715317740
85,chibougamau,49.9168,-74.3659,275.9,70,9,2.03,CA,1715317865
86,saipan,15.1355,145.701,305.54,62,40,5.66,MP,1715317865
87,chudniv,50.052,28.1175,283.44,72,48,2.45,UA,1715317865
88,katsuura,35.1333,140.3,291.63,45,0,6.16,JP,1715317866
89,san borja,-14.8167,-66.85,295.54,98,100,1.27,BO,1715317866
90,revda,56.801,59.9303,276.18,43,60,6.81,RU,1715317866
91,bamboo flat,11.7,92.7167,307.2,59,40,3.09,IN,1715317867
92,toktogul,41.8708,72.9402,294.5,56,97,2.34,KG,1715317867
93,jamestown,42.097,-79.2353,283.92,100,100,3.09,US,1715317868
94,coquimbo,-29.9533,-71.3436,286.19,80,20,1.24,CL,1715317868
95,kristinestad,62.2743,21.376,278.2,72,49,7.71,FI,1715317869
96,la passe,45.5549,-0.8967,286.16,89,16,3.61,FR,1715317869
97,colonia,50.9333,6.95,284.8,90,0,0.51,DE,1715317797
98,alenquer,-1.9417,-54.7383,297.31,96,94,1.47,BR,1715317870
99,yemetsk,63.4721,41.7941,272.59,85,100,4.41,RU,1715317870
100,oranjemund,-28.55,16.4333,284.56,90,0,1.75,NA,1715317844
101,utrik,11.2278,169.8474,300.32,84,87,8.82,MH,1715317871
102,wagar,16.1525,36.2032,302.6,46,4,1.77,SD,1715317871
103,kunshan,31.3776,120.9543,299.09,39,1,5.66,CN,1715317871
104,san antonio de pale,-1.4014,5.6325,299.94,87,100,5.87,GQ,1715317872
105,taulaga,-11.0553,-171.0883,302.52,72,100,3.25,AS,1715317872
106,gilgit,35.9221,74.3087,294.05,29,12,0.92,PK,1715317872
107,hotan,37.0997,79.9269,305.51,8,20,8.82,CN,1715317873
108,novouzensk,50.4592,48.1431,280.44,40,17,4.19,RU,1715317873
109,sanctuary point,-35.1114,150.629,293.01,85,96,4.24,AU,1715317873
110,ust-nera,64.5667,143.2,279.3,63,100,1.79,RU,1715317873
111,el hadjira,32.6134,5.5126,292.32,29,97,1.37,DZ,1715317874
112,alice,27.7523,-98.0697,300.84,94,100,3.6,US,1715317874
113,vilyuysk,63.7553,121.6247,272.59,50,100,4.02,RU,1715317874
114,ilulissat,69.2167,-51.1,267.16,58,65,0.0,GL,1715317875
115,ushuaia,-54.8,-68.3,270.28,91,54,1.62,AR,1715317875
116,saryozek,44.3583,77.9753,300.96,15,3,7.03,KZ,1715317875
117,hithadhoo,-0.6,73.0833,302.08,77,25,3.83,MV,1715317876
118,anadyr,64.75,177.4833,269.43,68,75,2.0,RU,1715317876
119,aykhal,66.0,111.5,266.89,80,100,5.82,RU,1715317876
120,kirensk,57.7853,108.1119,281.46,38,60,3.58,RU,1715317877
121,taourirt,34.4073,-2.8973,288.0,77,34,1.24,MA,1715317877
122,tura,25.5198,90.2201,304.66,40,59,2.19,IN,1715317877
123,papao,-17.75,-149.55,300.97,73,4,1.86,PF,1715317878
124,parauapebas,-6.0675,-49.9022,296.79,95,100,0.76,BR,1715317878
125,kardla,58.9978,22.7492,279.14,100,100,5.66,EE,1715317878
126,new norfolk,-42.7826,147.0587,287.99,84,99,1.26,AU,1715317879
127,bryne,58.7354,5.6477,280.5,92,75,3.6,NO,1715317880
128,ancud,-41.8697,-73.8203,281.55,80,81,2.32,CL,1715317880
129,posse,-14.0931,-46.3694,291.96,41,3,2.34,BR,1715317881
130,marsala,37.7966,12.4352,289.78,91,18,5.23,IT,1715317881
131,igarka,67.4667,86.5833,272.6,99,96,5.81,RU,1715317881
132,san patricio,28.017,-97.5169,301.12,86,0,3.01,US,1715317882
133,usinsk,65.9939,57.5281,272.08,97,100,1.34,RU,1715317882
134,pundong,-7.9522,110.3486,304.41,65,31,3.13,ID,1715317883
135,nemuro,43.3236,145.575,281.05,82,59,3.23,JP,1715317883
136,badger,64.8,-147.5333,281.08,74,75,3.09,US,1715317883
137,sitka,57.0531,-135.33,281.09,93,100,4.12,US,1715317884
138,kindu,-2.95,25.95,295.14,99,100,0.16,CD,1715317884
139,mazagao,-0.115,-51.2894,300.18,98,98,1.76,BR,1715317884
140,santa cruz,-17.8,-63.1667,291.85,94,20,1.03,BO,1715317885
141,manokwari,-0.8667,134.0833,301.03,80,99,3.63,ID,1715317885
142,rongelap,11.1635,166.8941,300.44,80,65,8.01,MH,1715317886
143,coronel dorrego,-38.7187,-61.2873,282.7,52,57,6.01,AR,1715317886
144,olonkinbyen,70.9221,-8.7187,270.82,77,50,7.51,SJ,1715317824
145,talnakh,69.4865,88.3972,267.71,76,4,1.11,RU,1715317734
146,kapa'a,22.0752,-159.319,299.14,84,40,3.6,US,1715317887
147,jwaneng,-24.6004,24.7303,286.09,33,0,3.52,BW,1715317888
148,ola,59.5833,151.2833,277.12,81,37,3.82,RU,1715317888
149,sao vicente,-23.9631,-46.3919,298.86,26,78,1.46,BR,1715317888
150,kiama,-34.6833,150.8667,293.15,88,98,0.89,AU,1715317889
151,bumba,2.1833,22.4667,296.26,94,100,1.02,CD,1715317889
152,lucea,18.451,-78.1736,300.29,82,86,0.78,JM,1715317890
153,sinabang,2.4803,96.3801,302.95,75,100,1.36,ID,1715317890
154,enewetak,11.3474,162.3373,300.78,78,96,7.47,MH,1715317868
155,qaqortoq,60.7167,-46.0333,273.98,75,100,0.95,GL,1715317761
156,ondjiva,-17.0667,15.7333,287.74,36,0,2.84,AO,1715317891
157,isla mujeres,21.2311,-86.731,301.18,87,33,6.01,MX,1715317891
158,weno,7.4515,151.8468,304.12,79,100,4.63,FM,1715317892
159,scarborough,54.2797,-0.4044,285.46,88,100,2.08,GB,1715317892
160,namibe,-15.1961,12.1522,295.86,71,8,4.0,AO,1715317892
161,cockburn town,21.4612,-71.1419,298.63,83,2,5.86,TC,1715317834
162,ijmuiden,52.4573,4.6111,284.2,92,58,1.79,NL,1715317893
163,uturoa,-16.7333,-151.4333,301.01,71,17,4.01,PF,1715317893
164,santiago de cao,-7.9589,-79.2392,290.22,94,75,5.14,PE,1715317894
165,west island,-12.1568,96.8225,301.14,74,100,9.26,CC,1715317894
166,kayangel,8.0823,134.7173,300.85,81,99,2.22,PW,1715317894
167,kisesa,-3.0833,34.15,291.42,86,81,3.0,TZ,1715317895
168,atherton,53.5237,-2.4935,285.79,88,100,0.54,GB,1715317895
169,rodolfo sanchez taboada,31.7167,-116.5667,287.65,70,31,0.45,MX,1715317895
170,port elizabeth,-33.918,25.5701,288.32,97,3,2.24,ZA,1715317805
171,vilyuchinsk,52.9306,158.4028,280.3,63,44,3.8,RU,1715317896
172,nova sintra,14.8667,-24.7167,296.91,78,35,9.35,CV,1715317896
173,kirakira,-10.4544,161.9205,300.81,76,66,4.48,SB,1715317897
174,okha,53.5739,142.9478,276.62,93,100,2.68,RU,1715317897
175,gobabis,-22.45,18.9667,288.71,33,0,4.36,NA,1715317897
176,rembangan,-6.7036,111.3416,305.02,58,44,4.49,ID,1715317898
177,hadibu,12.65,54.0333,302.55,66,61,0.44,YE,1715317783
178,georgetown,5.4112,100.3354,307.11,62,20,1.54,MY,1715317725
179,richards bay,-28.783,32.0377,291.98,72,0,4.0,ZA,1715317899
180,penzance,50.1186,-5.5371,285.24,85,100,5.44,GB,1715317899
181,wynyard,-41.0,145.7167,289.17,74,100,5.56,AU,1715317900
182,nuporanga,-20.7308,-47.7306,291.92,71,1,1.91,BR,1715317900
183,glace bay,46.1969,-59.957,277.36,97,100,5.66,CA,1715317888
184,laurel,39.0993,-76.8483,289.24,89,75,4.63,US,1715317900
185,prieska,-29.6641,22.7474,296.15,28,55,6.54,ZA,1715317901
186,nantucket,41.2835,-70.0995,282.18,93,75,5.14,US,1715317901
187,flying fish cove,-10.4217,105.6791,300.97,83,100,6.17,CX,1715317901
188,tannum sands,-23.9504,151.3693,298.57,53,75,6.17,AU,1715317902
189,leer,53.2316,7.461,282.67,96,35,1.28,DE,1715317902
190,certaldo,43.547,11.0402,289.38,83,32,1.88,IT,1715317902
191,plettenberg bay,-34.0527,23.3716,285.75,88,0,2.55,ZA,1715317903
192,port augusta,-32.5,137.7667,294.88,33,0,6.53,AU,1715317903
193,plainview,40.7765,-73.4673,286.34,79,100,7.2,US,1715317904
194,ubatuba,-23.4339,-45.0711,292.95,90,31,1.23,BR,1715317904
195,kayenta,36.7278,-110.2546,283.55,29,19,2.68,US,1715317904
196,zeya,53.75,127.2667,287.86,29,95,1.48,RU,1715317905
197,colchani,-20.3,-66.9333,280.82,37,9,3.3,BO,1715317905
198,lompoc,34.6391,-120.4579,287.0,88,0,2.57,US,1715317787
199,mount gambier,-37.8333,140.7667,288.99,75,94,4.02,AU,1715317826
200,slyudyanka,51.6594,103.7061,283.32,55,77,6.65,RU,1715317906
201,la foa,-21.7108,165.8276,296.02,55,44,5.98,NC,1715317906
202,luderitz,-26.6481,15.1594,285.89,83,0,4.41,NA,1715317906
203,okhotsk,59.3833,143.3,273.66,94,100,7.79,RU,1715317907
204,el fasher,13.6279,25.3494,299.0,13,82,2.21,SD,1715317907
205,tazacorte,28.629,-17.9293,292.69,80,0,5.66,ES,1715317907
206,fray luis beltran,-39.3167,-65.7667,282.57,44,41,5.41,AR,1715317908
207,yabelo,4.8833,38.0833,289.83,86,96,4.34,ET,1715317908
208,linqiong,30.4159,103.4609,294.07,78,100,1.04,CN,1715317908
209,dyersburg,36.0345,-89.3856,294.23,60,0,4.12,US,1715317909
210,isla vista,34.4133,-119.861,288.61,85,0,0.0,US,1715317909
211,kiunga,-6.1219,141.2906,299.51,91,99,0.76,PG,1715317909
212,lata,40.1629,-8.3327,286.52,69,74,0.87,PT,1715317721
213,urengoy,65.9667,78.3667,274.27,99,100,9.8,RU,1715317910
214,minas de marcona,-15.2119,-75.1103,285.74,89,60,4.73,PE,1715317910
215,avarua,-21.2078,-159.775,300.18,94,75,4.12,CK,1715317911
216,port saint john's,-31.6229,29.5448,294.45,47,6,2.83,ZA,1715317911
217,mao,39.8885,4.2658,287.46,88,0,3.6,ES,1715317911
218,smithers,54.7804,-127.1743,291.33,36,100,1.03,CA,1715317912
219,afaahiti,-17.75,-149.2833,300.08,79,21,3.9,PF,1715317912
220,cadale,2.7603,46.3222,301.65,71,88,6.67,SO,1715317912
221,daru,-9.0763,143.2092,299.77,87,91,5.92,PG,1715317913
222,praia da vitoria,38.7333,-27.0667,289.13,92,52,1.82,PT,1715317913
223,cabo san lucas,22.8909,-109.9124,296.82,62,4,4.56,MX,1715317828
224,alpine,32.835,-116.7664,287.41,84,0,2.06,US,1715317914
225,kenai,60.5544,-151.2583,277.2,70,0,4.12,US,1715317914
226,sao paulo de olivenca,-3.3783,-68.8725,296.34,98,58,0.95,BR,1715317914
227,poronaysk,49.2167,143.1167,284.05,57,95,1.92,RU,1715317915
228,ameca,20.55,-104.0333,294.72,35,2,2.33,MX,1715317915
229,yuzhno-kurilsk,44.0306,145.8556,285.03,64,47,2.8,RU,1715317915
230,santa isabel,-23.3156,-46.2214,294.76,91,98,0.68,BR,1715317916
231,punta de bombon,-17.1717,-71.7931,291.51,80,43,2.43,PE,1715317916
232,hailar,49.2,119.7,283.77,62,100,9.49,CN,1715317916
233,preobrazheniye,42.9019,133.9064,287.0,73,99,2.1,RU,1715317917
234,macapa,0.0389,-51.0664,300.14,89,75,1.54,BR,1715317917
235,dali,25.7,100.1833,295.69,39,40,4.56,CN,1715317917
236,vorgashor,67.5833,63.95,270.82,74,100,8.8,RU,1715317918
237,aban,56.67,96.06,285.76,39,99,3.1,RU,1715317918
238,dakhla,23.6848,-15.958,291.26,88,100,7.71,EH,1715317918
239,puerto ayora,-0.7393,-90.3518,296.23,96,66,2.41,EC,1715317738
240,palmer,42.1584,-72.3287,285.61,67,100,2.57,US,1715317919
241,vadso,70.0744,29.7487,272.64,74,75,3.6,NO,1715317919
242,alice springs,-23.7,133.8833,295.9,40,40,7.2,AU,1715317920
243,essaouira,31.5125,-9.77,291.87,94,40,3.09,MA,1715317920
244,dolores,-36.3132,-57.6792,279.51,72,0,2.53,AR,1715317920
245,roma,43.2128,-75.4557,285.66,68,40,0.0,US,1715317921
246,armacao de buzios,-22.7469,-41.8817,295.65,89,9,3.01,BR,1715317921
247,inyati,-19.6756,28.8469,284.18,82,0,2.77,ZW,1715317921
248,jataizinho,-23.2542,-50.98,296.47,88,0,2.57,BR,1715317922
249,seremban,2.7297,101.9381,306.61,65,34,0.9,MY,1715317922
250,kailua-kona,19.6406,-155.9956,299.13,86,40,2.57,US,1715317868
251,acapulco de juarez,16.8634,-99.8901,298.05,83,40,3.09,MX,1715317923
252,shache,38.4167,77.2406,303.56,10,5,4.2,CN,1715317923
253,umba,66.6871,34.3429,270.86,82,9,4.99,RU,1715317923
254,huarmey,-10.0681,-78.1522,292.53,87,38,4.06,PE,1715317924
255,skeldon,5.8833,-57.1333,298.05,93,99,3.16,GY,1715317924
256,vallenar,-28.5708,-70.7581,283.85,76,62,0.34,CL,1715317924
257,tomatlan,19.9333,-105.25,293.23,97,3,1.58,MX,1715317925
258,ciampea,-6.5547,106.7008,307.94,60,9,2.69,ID,1715317925
259,de haan,51.272,3.0429,284.25,83,34,1.03,BE,1715317925
260,nabire,-3.3667,135.4833,302.15,82,86,1.86,ID,1715317926
261,nyrob,60.733,56.7202,273.55,77,100,5.57,RU,1715317926
262,basoko,1.2391,23.616,295.56,93,94,0.99,CD,1715317926
263,oriximina,-1.7656,-55.8661,297.91,94,100,0.88,BR,1715317927
264,chonchi,-42.6128,-73.8092,277.1,91,50,0.62,CL,1715317927
265,klyuchi,52.2667,79.1667,292.29,60,100,3.49,RU,1715317927
266,porto velho,-8.7619,-63.9039,300.18,89,0,0.0,BR,1715317928
267,sirte,31.2089,16.5887,291.6,72,50,10.64,LY,1715317928
268,kourou,5.1552,-52.6478,298.18,93,100,1.75,GF,1715317928
269,prado,-17.3411,-39.2208,297.68,87,1,0.45,BR,1715317929
270,nizhnyaya tavda,57.6731,66.1725,281.03,40,25,2.19,RU,1715317929
271,bogotol,56.2078,89.5342,290.1,35,100,7.16,RU,1715317929
272,purranque,-40.9167,-73.1667,277.75,99,21,0.95,CL,1715317930
273,aitape,-3.1374,142.3475,300.68,85,99,2.68,PG,1715317930
274,gadzhiyevo,69.2551,33.3362,273.02,84,100,6.31,RU,1715317930
275,geraldton,-28.7667,114.6,303.38,30,73,5.14,AU,1715317881
276,aasiaat,68.7098,-52.8699,260.4,94,81,1.48,GL,1715317931
277,besni,37.6928,37.8611,290.76,41,47,2.83,TR,1715317932
278,taber,49.8167,-112.1518,284.63,81,8,4.12,CA,1715317932
279,howrah,22.5892,88.3103,301.15,74,75,2.06,IN,1715317932
280,harper,4.375,-7.7169,300.33,84,90,2.19,LR,1715317933
281,cill airne,52.05,-9.5167,282.06,93,94,2.3,IE,1715317933
282,anori,-3.7728,-61.6442,298.81,83,97,0.98,BR,1715317933
283,nogliki,51.8333,143.1667,277.23,96,100,3.58,RU,1715317934
284,aur,8.1499,171.1687,301.22,82,99,7.3,MH,1715317934
285,fortaleza,-3.7227,-38.5247,302.22,89,75,4.63,BR,1715317934
286,tezu,27.9167,96.1667,304.22,32,100,2.06,IN,1715317935
287,belabo,4.9333,13.3,294.54,100,90,0.81,CM,1715317935
288,east london,-33.0153,27.9116,292.28,81,21,2.07,ZA,1715317760
289,sao pedro do sul,-29.6206,-54.1789,285.96,81,100,2.98,BR,1715317936
290,akjoujt,19.6969,-14.4164,302.13,14,74,5.03,MR,1715317937
291,angaur state,6.906,134.13,300.71,83,98,3.54,PW,1715317937
292,kolonia,50.9333,6.95,284.8,90,0,0.51,DE,1715317938
293,carnarvon,-24.8667,113.6333,300.44,47,24,3.0,AU,1715317938
294,porto novo,6.4965,2.6036,303.05,82,100,2.31,BJ,1715317938
295,kutoarjo,-7.7169,109.9128,304.94,62,22,3.75,ID,1715317939
296,oravita,45.0325,21.6894,286.53,82,100,0.91,RO,1715317939
297,gulf shores,30.246,-87.7008,300.69,78,75,5.14,US,1715317940
298,newcastle,-32.9272,151.7765,294.16,71,75,4.63,AU,1715317940
299,uruacu,-14.5247,-49.1408,291.26,65,3,1.66,BR,1715317940
300,port lincoln,-34.7333,135.8667,289.89,66,0,4.57,AU,1715317940
301,kapuskasing,49.4169,-82.4331,276.2,75,0,1.03,CA,1715317941
302,la ronge,55.1001,-105.2842,285.29,35,20,2.57,CA,1715317941
303,chandler,33.3062,-111.8412,298.97,17,0,2.06,US,1715317682
304,lethem,3.3803,-59.7968,297.62,95,100,3.26,GY,1715317913
305,tsiombe,-25.3,45.4833,295.58,68,0,2.78,MG,1715317942
306,callao,-12.0667,-77.15,293.55,82,0,3.09,PE,1715317847
307,scottburgh,-30.2867,30.7532,293.86,42,0,2.76,ZA,1715317943
308,wewak,-3.5534,143.6268,300.7,85,44,1.98,PG,1715317943
309,mikuni,36.2171,136.1519,292.44,48,9,3.83,JP,1715317943
310,mount pearl,47.5166,-52.7813,275.55,94,75,1.03,CA,1715317944
311,ellsworth,44.5434,-68.4195,279.18,95,0,1.34,US,1715317944
312,sittwe,20.15,92.9,304.24,54,29,4.87,MM,1715317944
313,garbahaarrey,3.3289,42.2209,299.99,72,99,6.22,SO,1715317944
314,monchegorsk,67.9397,32.8739,270.97,80,100,5.41,RU,1715317945
315,peace river,56.2501,-117.286,290.32,33,40,4.12,CA,1715317945
316,st. john's,47.5649,-52.7093,275.81,93,100,1.79,CA,1715317807
317,kisangani,0.5167,25.2,295.43,98,100,0.88,CD,1715317946
318,bontoc,17.0899,120.978,297.69,83,65,0.71,PH,1715317946
319,tawau,4.2498,117.8871,302.13,71,16,1.44,MY,1715317946
320,sechura,-5.5569,-80.8222,294.41,77,100,7.2,PE,1715317947
321,yacuiba,-22.038,-63.6797,285.08,92,69,1.47,BO,1715317947
322,tokar,18.4254,37.729,302.41,65,64,5.34,SD,1715317948
323,kerikeri,-35.2268,173.9474,286.99,65,1,3.13,NZ,1715317801
324,ilovlya,49.3033,43.9796,281.76,37,61,1.38,RU,1715317948
325,san jose,37.3394,-121.895,292.75,58,0,2.06,US,1715317949
326,lionel town,17.8101,-77.2406,299.76,86,79,1.94,JM,1715317949
327,lamu,-2.2717,40.902,299.74,85,91,7.34,KE,1715317949
328,mana,5.6592,-53.7767,298.69,90,100,4.27,GF,1715317950
329,barysaw,54.2312,28.5049,281.31,80,99,5.0,BY,1715317950
330,strelka,58.0728,93.0344,285.2,46,100,4.35,RU,1715317950
331,masterton,-40.9597,175.6575,283.64,60,69,4.53,NZ,1715317954
332,happy valley-goose bay,53.3168,-60.3315,274.32,80,75,2.57,CA,1715317954
333,puerto leguizamo,-0.1934,-74.7819,295.13,99,99,1.49,CO,1715317955
334,amble,55.3333,-1.5833,285.57,93,75,1.54,GB,1715317955
335,putina,-15.4667,-69.4333,280.1,85,4,2.39,PE,1715317955
336,argostolion,38.1811,20.489,291.34,53,100,2.23,GR,1715317956
337,bezhetsk,57.7851,36.6965,276.93,56,72,6.05,RU,1715317956
338,saldanha,-33.0117,17.9442,288.03,83,46,7.67,ZA,1715317956
339,ribeira brava,32.65,-17.0667,292.5,78,21,1.31,PT,1715317957
340,kitee,62.1,30.15,275.69,59,78,2.17,FI,1715317957
341,labasa,-16.4167,179.3833,297.07,64,32,4.05,FJ,1715317958
342,constantia,44.1833,28.65,287.43,73,19,7.23,RO,1715317771
343,chopda,21.25,75.3,308.79,34,0,4.71,IN,1715317958
344,lodwar,3.1191,35.5973,300.16,65,92,6.77,KE,1715317958
345,beloyarskiy,63.7119,66.6722,273.71,99,50,3.58,RU,1715317959
346,saudarkrokur,65.7461,-19.6394,277.34,60,96,0.61,IS,1715317916
347,muroto-misakicho,33.2833,134.15,291.34,48,0,2.13,JP,1715317960
348,lake city,30.1897,-82.6393,294.15,99,100,0.0,US,1715317960
349,catriel,-37.8791,-67.7956,282.29,51,34,3.98,AR,1715317960
350,ghanzi,-21.5667,21.7833,286.33,33,0,3.96,BW,1715317962
351,arkhangel'sk,64.5401,40.5433,271.21,93,100,4.0,RU,1715317962
352,vila velha,-20.3297,-40.2925,297.12,97,0,1.34,BR,1715317962
353,el nido,11.1858,119.3956,304.85,64,25,5.45,PH,1715317963
354,chikwawa,-16.0335,34.8009,297.52,78,1,0.3,MW,1715317963
355,misantla,19.9333,-96.8333,305.26,26,78,3.04,MX,1715317963
356,maryville,35.7565,-83.9705,293.26,93,40,2.06,US,1715317964
357,rye,40.9807,-73.6837,287.72,79,75,5.66,US,1715317964
358,kirakat,25.6333,82.9167,305.19,29,0,4.14,IN,1715317964
359,buurhakaba,2.8026,44.0781,299.63,77,90,6.93,SO,1715317965
360,aracati,-4.5617,-37.7697,297.41,92,99,3.19,BR,1715317965
361,pimentel,-6.8367,-79.9342,292.31,82,0,7.72,PE,1715317965
362,wabag,-5.4781,143.7021,290.32,98,99,1.36,PG,1715317966
363,naze,28.3667,129.4833,294.3,51,100,4.17,JP,1715317935
364,haiku-pauwela,20.9219,-156.3051,295.49,92,75,6.17,US,1715317850
365,margate,51.3813,1.3862,284.65,91,92,2.02,GB,1715317966
366,zhosaly,45.4878,64.0781,291.86,28,91,6.27,KZ,1715317967
367,spitak,40.8322,44.2673,282.95,73,93,0.37,AM,1715317967
368,nieuw amsterdam,5.8833,-55.0833,298.43,91,100,4.52,SR,1715317967
369,wainwright,52.839,-110.8572,284.18,66,70,2.36,CA,1715317968
370,gamba,-2.65,10.0,298.28,92,100,1.63,GA,1715317968
371,palikir - national government center,6.9248,158.1611,301.56,84,100,3.09,FM,1715317968
372,thunder bay,48.4001,-89.3168,275.14,93,0,1.54,CA,1715317969
373,acarau,-2.8856,-40.12,298.34,91,100,3.32,BR,1715317969
374,prince albert,53.2001,-105.7677,282.12,53,20,0.0,CA,1715317969
375,itoman,26.1247,127.6694,299.36,53,75,5.14,JP,1715317970
376,great falls,47.5002,-111.3008,281.81,80,0,4.63,US,1715317970
377,luis correia,-2.8792,-41.6669,298.1,88,100,2.43,BR,1715317970
378,bikenibeu village,1.3673,173.1241,303.13,79,20,1.54,KI,1715317971
379,sheridan,44.8333,-106.9173,283.88,82,100,3.6,US,1715317972
380,broome,42.2506,-75.833,284.08,94,100,1.54,US,1715317972
381,nouadhibou,20.931,-17.0347,292.14,88,20,5.66,MR,1715317972
382,kamensk-ural'skiy,56.4185,61.9329,275.33,45,80,6.56,RU,1715317973
383,malabar,-33.9667,151.25,294.13,78,75,5.66,AU,1715317973
384,peniche,39.3558,-9.3811,289.42,96,100,1.45,PT,1715317736
385,la gi,10.6667,107.7833,306.06,59,61,8.1,VN,1715317974
386,atamyrat,37.8357,65.2106,293.01,50,100,5.85,TM,1715317974
387,srikakulam,18.3,83.9,306.78,54,40,5.85,IN,1715317974
388,susuman,62.7833,148.1667,279.25,47,100,3.13,RU,1715317726
389,komatipoort,-25.4332,31.9548,288.95,59,0,1.98,ZA,1715317975
390,itacoatiara,-3.1431,-58.4442,297.92,90,89,0.83,BR,1715317975
391,jinxiang,27.4327,120.6062,292.85,69,100,1.17,CN,1715317976
392,hirara,24.8,125.2833,300.3,57,75,3.09,JP,1715317976
393,las tablas,7.7667,-80.2833,300.47,99,100,1.97,PA,1715317976
394,taoudenni,22.6783,-3.9836,303.79,8,40,5.98,ML,1715317977
395,coari,-4.085,-63.1414,298.14,85,54,1.02,BR,1715317977
396,viedma,-40.8135,-62.9967,281.05,41,9,3.27,AR,1715317977
397,khilok,51.3674,110.4676,280.32,34,100,7.56,RU,1715317977
398,azemmour,33.2895,-8.3425,292.02,78,100,3.42,MA,1715317978
399,mandalgovi,45.7625,106.2708,282.51,21,2,11.55,MN,1715317978
400,divnogorsk,55.9594,92.3619,288.56,32,100,2.35,RU,1715317978
401,maamba,-17.3667,27.15,289.31,58,4,0.79,ZM,1715317979
402,freetown,8.484,-13.2299,297.99,88,75,1.54,SL,1715317979
403,novodvinsk,64.4165,40.8122,271.01,59,99,4.32,RU,1715317979
404,kimbe,-5.5502,150.1429,300.69,90,100,0.88,PG,1715317980
405,mar''ina horka,53.509,28.147,281.27,84,96,4.19,BY,1715317980
406,sangin,32.0728,64.8359,301.59,30,36,4.2,AF,1715317980
407,polyarnyy,69.1989,33.4478,272.87,83,100,6.44,RU,1715317908
408,boende,-0.2167,20.8667,295.27,96,100,0.25,CD,1715317981
409,bubaque,11.2833,-15.8333,300.03,81,97,4.97,GW,1715317981
410,turpan,42.9333,89.1667,306.11,10,0,2.85,CN,1715317982
411,nuuk,64.1835,-51.7216,272.49,93,100,5.14,GL,1715317982
412,knyaze-volkonskoye,48.4642,135.4567,290.56,20,43,4.92,RU,1715317982
413,centerville,39.6284,-84.1594,285.77,85,100,4.12,US,1715317983
414,burang,30.25,81.1667,282.74,21,6,1.65,CN,1715317983
415,swift current,50.2834,-107.8014,284.6,54,0,2.06,CA,1715317983
416,tazovsky,67.4667,78.7,273.01,88,99,9.43,RU,1715317984
417,roccella ionica,38.322,16.4009,289.51,83,98,3.57,IT,1715317984
418,arteche,12.2645,125.4048,304.19,58,48,3.74,PH,1715317984
419,gambettola,44.1175,12.3371,288.91,70,0,3.09,IT,1715317985
420,tynda,55.1667,124.7167,283.04,43,100,2.92,RU,1715317985
421,bonthe,7.5264,-12.505,299.94,85,100,2.48,SL,1715317985
422,aleksandrovsk,59.158,57.5624,275.26,55,100,6.37,RU,1715317986
423,barra de santo antonio,-9.4047,-35.5072,297.75,71,51,3.82,BR,1715317986
424,beyneu,45.3167,55.2,288.75,30,7,3.04,KZ,1715317986
425,kuta,-8.7233,115.1723,302.12,79,20,7.72,ID,1715317987
426,zhalantun,48.0,122.7167,284.99,58,100,8.23,CN,1715317987
427,prince rupert,54.3161,-130.3201,283.2,87,0,1.03,CA,1715317956
428,mbekenyera,-10.0,38.9833,295.07,89,4,2.05,TZ,1715317987
429,nizhniy odes,63.6445,54.856,271.24,89,81,3.35,RU,1715317988
430,wotho,10.1657,166.0102,300.63,79,88,7.78,MH,1715317988
431,walvis bay,-22.9575,14.5053,288.2,88,0,1.54,NA,1715317988
432,marsh harbour,26.5412,-77.0636,297.41,77,3,4.77,BS,1715317989
433,pacocha,-17.5833,-71.3333,290.74,85,56,0.74,PE,1715317989
434,ahar,38.4774,47.0699,287.55,55,100,1.66,IR,1715317989
435,port moresby,-9.4431,147.1797,302.83,70,75,5.14,PG,1715317929
436,dunedin,-45.8742,170.5036,281.37,86,88,4.02,NZ,1715317876
437,mezhdurechenskiy,59.6,65.9333,279.69,39,1,5.92,RU,1715317990
438,posto fiscal rolim de moura,-13.0833,-62.2667,297.1,84,26,0.22,BR,1715317991
439,san rafael,-34.6177,-68.3301,282.18,48,0,2.58,AR,1715317922
440,sao raimundo das mangabeiras,-7.0219,-45.4811,297.92,72,100,1.47,BR,1715317991
441,tibanesti,46.9167,27.3333,285.21,65,99,1.74,RO,1715317992
442,greymouth,-42.4667,171.2,283.04,64,0,0.88,NZ,1715317753
443,huaicheng,23.9051,112.1931,298.43,79,96,1.85,CN,1715317992
444,kununurra,-15.7667,128.7333,307.14,40,4,4.63,AU,1715317992
445,bel ombre,-4.6167,55.4167,304.06,70,20,4.12,SC,1715317993
446,mojokerto,-7.4664,112.4338,304.99,55,13,4.22,ID,1715317993
447,parabel',58.6978,81.4825,293.66,47,92,4.47,RU,1715317993
448,ciudad bolivar,8.1222,-63.5497,301.75,63,94,2.0,VE,1715317994
449,remire-montjoly,4.9167,-52.2667,298.17,100,100,0.0,GF,1715317789
450,el calafate,-50.3408,-72.2768,273.4,88,94,0.98,AR,1715317995
451,ballina,-28.8667,153.5667,293.58,52,61,4.11,AU,1715317995
452,veraval,20.9,70.3667,303.36,68,0,4.42,IN,1715317995
453,kingston,17.997,-76.7936,299.35,88,81,0.94,JM,1715317996
454,tchaourou,8.8865,2.5975,298.18,84,96,2.46,BJ,1715317996
455,ataq,14.5377,46.8319,300.18,45,99,2.49,YE,1715317996
456,nadi,-17.8,177.4167,300.15,47,20,4.12,FJ,1715317997
457,cuito,-12.3833,16.9333,285.34,63,46,1.32,AO,1715317997
458,kavaratti,10.5669,72.642,303.06,70,99,4.86,IN,1715317998
459,leua,48.2156,18.6071,286.2,72,71,1.71,SK,1715317998
460,kuqa,41.7278,82.9364,299.63,10,0,3.94,CN,1715317950
461,pacific grove,36.6177,-121.9166,288.28,84,0,0.45,US,1715317973
462,visakhapatnam,17.69,83.2093,305.09,70,40,4.12,IN,1715317995
463,kilindoni,-7.9139,39.6668,299.66,79,21,7.29,TZ,1715317999
464,zvishavane,-20.3267,30.0665,286.27,84,0,1.5,ZW,1715318000
465,dubbo,-32.25,148.6167,292.22,59,100,5.66,AU,1715317865
466,nampula,-15.1165,39.2666,292.92,87,4,1.68,MZ,1715318000
467,candolim,15.5181,73.7626,302.17,72,6,4.56,IN,1715318000
468,sandnessjoen,66.0217,12.6316,277.44,66,93,7.99,NO,1715318001
469,baskil,38.5679,38.8238,286.06,43,36,2.09,TR,1715318001
470,egersund,58.4513,5.9997,281.53,89,100,4.12,NO,1715318001
471,corinto,37.9407,22.9573,290.5,82,100,3.64,GR,1715318002
472,mitha tiwana,32.2486,72.1108,312.24,20,43,6.42,PK,1715318002
473,woodlake,37.4211,-77.6793,293.94,94,40,1.54,US,1715318002
474,lumut,4.2323,100.6298,307.16,66,20,1.54,MY,1715318003
475,wonju,37.3514,127.9453,297.04,40,9,3.78,KR,1715318003
476,sibu,2.3,111.8167,307.32,62,40,0.51,MY,1715318003
477,port douglas,-16.4833,145.4667,298.32,80,89,6.27,AU,1715318002
478,sakakah,29.9697,40.2064,297.91,15,0,7.21,SA,1715318004
479,heroica guaymas,27.9333,-110.9,297.91,30,79,2.67,MX,1715318004
480,lazaro cardenas,17.9583,-102.2,296.52,80,58,0.93,MX,1715317905
481,miracema do tocantins,-9.5618,-48.3967,295.58,62,80,0.68,BR,1715318005
482,akureyri,65.6835,-18.0878,274.11,86,0,3.09,IS,1715318005
483,choyr,46.3611,108.3611,282.54,23,45,13.66,MN,1715318005
484,port clinton,41.512,-82.9377,285.92,77,100,5.14,US,1715318006
485,kavieng,-2.5744,150.7967,301.85,76,68,1.88,PG,1715317827
486,apatity,67.5641,33.4031,269.63,81,21,4.18,RU,1715318006
487,ad dilam,23.9915,47.1627,299.38,19,38,2.21,SA,1715318007
488,neiafu,-18.65,-173.9833,298.53,73,20,4.12,TO,1715318007
489,constitucion,-35.3333,-72.4167,283.18,74,100,2.19,CL,1715318007
490,kokopo,-4.352,152.2633,301.17,80,39,1.53,PG,1715318008
491,iaciara,-14.0958,-46.6317,290.53,55,2,1.37,BR,1715318008
492,sinop,41.7711,34.8709,284.39,77,100,1.45,TR,1715318009
493,kaohsiung,22.6163,120.3133,302.12,69,75,5.14,TW,1715317923
494,crucecita,-28.95,-58.9833,286.52,70,100,2.04,AR,1715318009
495,sturgis,41.7992,-85.4192,284.3,91,100,2.06,US,1715318010
496,balkashino,52.5167,68.7667,284.77,46,24,6.01,KZ,1715318010
497,lengshuitan,26.4111,111.5956,301.1,63,100,3.99,CN,1715318010
498,kencong,-8.2833,113.3667,302.23,71,22,3.09,ID,1715318011
499,road town,18.4167,-64.6167,299.08,78,2,4.77,VG,1715318011
500,antsiranana,-12.2787,49.2917,299.51,67,31,7.37,MG,1715318011
501,pacasmayo,-7.4006,-79.5714,292.82,85,96,5.95,PE,1715318012
502,dabakala,8.3667,-4.4333,297.8,89,74,2.33,CI,1715318012
503,klyavlino,54.2649,52.0267,275.97,54,25,8.03,RU,1715318012
504,mwinilunga,-11.7358,24.4293,286.64,77,34,1.1,ZM,1715318013
505,tafuna,-14.3358,-170.72,301.12,83,75,1.03,AS,1715318013
506,fort bragg,35.139,-79.006,295.0,84,0,5.66,US,1715317780
507,ambalangoda,6.2355,80.0538,303.22,71,100,1.88,LK,1715318014
508,codrington,-38.2667,141.9667,289.97,73,84,2.04,AU,1715318014
509,juneau,58.3019,-134.4197,282.15,93,100,0.0,US,1715318014
510,souillac,-20.5167,57.5167,299.36,65,40,6.69,MU,1715318015
511,igrim,63.1906,64.4162,275.46,70,8,5.59,RU,1715318015
512,ningbo,29.8782,121.5495,300.14,39,0,7.0,CN,1715318016
513,sisimiut,66.9395,-53.6735,267.26,79,8,3.26,GL,1715317768
514,tabou,4.423,-7.3528,300.44,84,99,2.26,CI,1715318016
515,grafenwohr,49.7189,11.9067,281.25,92,20,0.0,DE,1715318017
516,gunnedah,-30.9833,150.25,292.3,59,100,2.19,AU,1715318017
517,tonota,-21.4833,27.4833,285.59,79,0,1.72,BW,1715318017
518,tolanaro,-25.0319,46.9987,296.98,74,10,5.92,MG,1715318018
519,yantarnyy,54.8717,19.9381,283.07,98,100,8.72,RU,1715318018
520,severnoye,56.3491,78.3619,293.14,55,51,3.13,RU,1715318018
521,jiagedaqi,50.4167,124.1167,287.69,44,100,5.62,CN,1715318019
522,tual,-5.6667,132.75,301.37,79,35,6.55,ID,1715318019
523,yoichi,43.2039,140.7703,287.69,39,72,4.39,JP,1715318019
524,east ballina,-28.8667,153.5833,293.59,52,61,4.11,AU,1715318020
525,stavern,59.0,10.0333,283.25,71,34,6.92,NO,1715318020
526,isangel,-19.55,169.2667,295.21,88,75,3.09,VU,1715318020
527,nirgua,10.1553,-68.5663,293.69,93,81,1.12,VE,1715318021
528,lerwick,60.1545,-1.1494,282.15,98,100,6.82,GB,1715318021
529,oum hadjer,13.2954,19.6966,304.92,14,92,4.08,TD,1715318021
530,saint-louis,16.3333,-15.0,300.88,22,7,4.07,SN,1715318022
531,mejit,10.2753,170.8646,300.46,83,98,9.04,MH,1715318022
532,pathein,16.7833,94.7333,312.0,30,0,2.24,MM,1715318023
533,chegdomyn,51.1167,133.0167,287.59,23,91,0.98,RU,1715318023
534,la sarre,48.8002,-79.1996,277.95,61,7,2.8,CA,1715318023
535,horta,38.5333,-28.6333,290.38,91,38,4.02,PT,1715318024
536,osan,37.1522,127.0706,299.02,27,0,6.17,KR,1715317914
537,bayanhongor,46.7167,100.1167,283.47,11,1,5.79,MN,1715318024
538,lautoka,-17.6167,177.4667,300.07,47,20,4.12,FJ,1715318025
539,nar'yan-mar,67.6713,53.087,271.54,95,100,11.62,RU,1715318025
540,champerico,14.3,-91.9167,302.4,70,61,2.77,GT,1715317983
541,sao felix do xingu,-6.6447,-51.995,295.76,85,96,0.8,BR,1715317895
542,east grand forks,47.93,-97.0245,287.03,58,40,3.6,US,1715318026
543,el granada,37.5027,-122.4694,292.36,64,0,2.57,US,1715318026
544,carbonear,47.7332,-53.2148,276.27,92,98,2.57,CA,1715318027
545,leava,-14.3,-178.1667,300.39,69,100,7.75,WF,1715318027
546,hanceville,34.0607,-86.7675,294.1,93,45,2.16,US,1715318027
547,ban dung,17.699,103.2596,303.27,56,100,2.13,TH,1715318028
548,bac lieu,9.285,105.7244,306.55,57,61,7.73,VN,1715318028
549,quellon,-43.1167,-73.6167,278.8,88,17,2.12,CL,1715317793
550,la plata,-34.9215,-57.9545,286.45,65,97,2.35,AR,1715318029
551,tadine,-21.55,167.8833,296.13,66,59,6.58,NC,1715318029
552,tyukhtet,56.5389,89.3011,290.54,36,100,6.06,RU,1715318029
553,san pascual,13.7975,121.0342,306.7,52,43,8.07,PH,1715318030
554,tobruk,32.0836,23.9764,290.27,71,0,8.24,LY,1715318030
555,vila franca do campo,37.7167,-25.4333,289.38,88,18,1.16,PT,1715318030
556,egbe,8.2167,5.5167,297.51,84,100,2.74,NG,1715318031
557,bettendorf,41.5245,-90.5157,286.49,94,100,1.54,US,1715318031
